[
  { "city": "Amsterdam", "latitude": 52.367, "longitude": 4.904 },
  { "city": "Ankara", "latitude": 39.933, "longitude": 32.859 },
  { "city": "Åstorp", "latitude": 56.134, "longitude": 12.945 },
  { "city": "Athens", "latitude": 37.983, "longitude": 23.727 },
  { "city": "Belfast", "latitude": 54.597, "longitude": -5.930 },
  { "city": "Barcelona", "latitude": 41.387, "longitude": 2.168 },
  { "city": "Berlin", "latitude": 52.520, "longitude": 13.405 },
  { "city": "Bern", "latitude": 46.948, "longitude": 7.447 },
  { "city": "Bilbao", "latitude": 43.263, "longitude": -2.935 },
  { "city": "Brussels", "latitude": 50.847, "longitude": 4.357 },
  { "city": "Bucharest", "latitude": 47.497, "longitude": 19.040 },
  { "city": "Budapest", "latitude": 59.329, "longitude": 18.068 },
  { "city": "Cardiff", "latitude": 51.483, "longitude": -3.168 },
  { "city": "Cologne", "latitude": 50.937, "longitude": 6.960 },
  { "city": "Copenhagen", "latitude": 55.676, "longitude": 12.568 },
  { "city": "Cork", "latitude": 51.898, "longitude": -8.475 },
  { "city": "Dublin", "latitude": 53.349, "longitude": -6.260 },
  { "city": "Edinburgh", "latitude": 55.953, "longitude": -3.188 },
  { "city": "Florence", "latitude": 43.7696, "longitude": 11.255 },
  { "city": "Frankfurt", "latitude": 50.110, "longitude": 8.682 },
  { "city": "French Riviera", "latitude": 43.254, "longitude": 6.637 },
  { "city": "Funchal", "latitude": 32.650, "longitude": -16.908 },
  { "city": "Gibraltar", "latitude": 36.140, "longitude": -5.353 },
  { "city": "Gothenburg", "latitude": 57.708, "longitude": 11.974 },
  { "city": "Hamburg", "latitude": 53.548, "longitude": 9.987 },
  { "city": "Helsinki", "latitude": 60.169, "longitude": 24.938 },
  { "city": "Ibiza", "latitude": 39.020, "longitude": 1.482 },
  { "city": "Kyiv", "latitude": 50.450, "longitude": 30.523 },
  { "city": "Lillehammer", "latitude": 61.115, "longitude": 10.466 },
  { "city": "Lisbon", "latitude": 38.722, "longitude": -9.139 },
  { "city": "London", "latitude": 51.507, "longitude": -0.127 },
  { "city": "Madrid", "latitude": 40.416, "longitude": -3.703 },
  { "city": "Mallorca", "latitude": 39.695, "longitude": 3.017 },
  { "city": "Manchester", "latitude": 53.480, "longitude": -2.242 },
  { "city": "Marseille", "latitude": 43.296, "longitude": 5.369 },
  { "city": "Maspalomas", "latitude": 27.760, "longitude": -15.586 },
  { "city": "Milan", "latitude": 45.464, "longitude": 9.190 },
  { "city": "Munich", "latitude": 48.135, "longitude": 11.582 },
  { "city": "Naples", "latitude": 40.851, "longitude": 14.268 },
  { "city": "Oñati", "latitude": 43.034, "longitude": -2.417 },
  { "city": "Oslo", "latitude": 59.913, "longitude": 10.752 },
  { "city": "Paris", "latitude": 48.856, "longitude": 2.352 },
  { "city": "Prague", "latitude": 50.075, "longitude": 14.437 },
  { "city": "Reykjavík", "latitude": 64.146, "longitude": -21.942 },
  { "city": "Riga", "latitude": 56.879, "longitude": 24.603 },
  { "city": "Rome", "latitude": 41.902, "longitude": 12.496 },
  { "city": "Santa Cruz das Flores", "latitude": 39.453, "longitude": -31.127 },
  { "city": "Santa Cruz de Tenerife", "latitude": 28.463, "longitude": -16.251 },
  { "city": "Skye", "latitude": 57.273, "longitude": -6.215 },
  { "city": "Sofia", "latitude": 42.697, "longitude": 23.321 },
  { "city": "Stockholm", "latitude": 59.329, "longitude": 18.068 },
  { "city": "Tallinn", "latitude": 59.437, "longitude": 24.753 },
  { "city": "Vienna", "latitude": 18.208, "longitude": 16.373 },
  { "city": "Warsaw", "latitude": 52.229, "longitude": 21.012 },
  { "city": "York", "latitude": 53.961, "longitude": -1.070 },
  { "city": "Zurich", "latitude": 47.376, "longitude": 8.541 }
]
